plot;cov;t1cov;t2cov;scov;hcov;mcov;htl1;htl2;hsl;hhl1;hhl2;plsx;plsy;expo;slope;rock;bare;stones;date;latitude;longitude;accuracy;alliance;association;soil;comment;location
um01;;;;;;;;;;;;;;;;;;;2014-08-22;47.88589;13.06084;10;Sohagnion medii;;;;Rand des Staubereiches
um02;;;;;;;;;;;;;;;;;;;2014-08-22;47.88624;13.06106;10;Sohagnion medii;;;;Freifläche in Hochmoor
um03;;;;;;;;;;;;;;;;;;;2014-08-22;47.88601;13.06142;10;Sohagnion medii;;;;Freifläche in Hochmoor
um04;;;;;;;;;;;;;;;;;;;2014-08-22;47.88589;13.06156;10;Sphagno-Utricularion;;;;Grabenanstau
um05;;;;;;;;;;;;;;;;;;;2014-08-22;47.88788;13.06389;10;Sphagno-Utricularion;;;;Torfstichregneration
um06;;;;;;;;;;;;;;;;;;;2014-08-22;47.88790;13.06379;10;Sohagnion medii;;;;trockener Torfsockel
